{
  "jejuExtraImages": {
    "섭지코지": "https://tong.visitkorea.or.kr/cms/resource/83/2513483_image2_1.jpg",
    "비자림": "https://tong.visitkorea.or.kr/cms/resource/22/3350622_image2_1.jpg",
    "만장굴": "https://tong.visitkorea.or.kr/cms/resource/55/3354155_image2_1.jpg"
  },
  "regions": {
    "busan": [
      {
        "name": "해운대해수욕장",
        "category": "해변",
        "lat": 35.1590840227225,
        "lng": 129.160278564827,
        "image": "https://tong.visitkorea.or.kr/cms/resource/34/3090534_image2_1.JPG"
      },
      {
        "name": "감천문화마을",
        "category": "문화",
        "lat": 35.0974606978369,
        "lng": 129.010596996534,
        "image": "https://tong.visitkorea.or.kr/cms/resource/91/3365491_image2_1.jpg"
      },
      {
        "name": "태종대",
        "category": "자연",
        "lat": 35.05969491904282,
        "lng": 129.07980569117214,
        "image": "https://tong.visitkorea.or.kr/cms/resource/83/3506383_image2_1.jpg"
      },
      {
        "name": "광안리해수욕장",
        "category": "해변",
        "lat": 35.1538130576,
        "lng": 129.1185477876,
        "image": "https://tong.visitkorea.or.kr/cms/resource/45/3311245_image2_1.jpg"
      },
      {
        "name": "해동용궁사",
        "category": "사찰",
        "lat": 35.1882428912293,
        "lng": 129.223530192843,
        "image": "https://tong.visitkorea.or.kr/cms/resource/35/3499335_image2_1.jpg"
      }
    ],
    "gyeongju": [
      {
        "name": "불국사",
        "category": "사찰",
        "lat": 35.7923023161251,
        "lng": 129.331725391321,
        "image": "https://tong.visitkorea.or.kr/cms/resource/70/3506170_image2_1.jpg"
      },
      {
        "name": "석굴암",
        "category": "사찰",
        "lat": 35.78934072227894,
        "lng": 129.35075165526612,
        "image": "https://tong.visitkorea.or.kr/cms/resource/69/3581269_image2_1.jpg"
      },
      {
        "name": "첨성대",
        "category": "역사",
        "lat": 35.8343303426799,
        "lng": 129.218534537847,
        "image": "https://tong.visitkorea.or.kr/cms/resource/81/3554381_image2_1.jpg"
      },
      {
        "name": "대릉원",
        "category": "역사",
        "lat": 35.8382,
        "lng": 129.2128,
        "image": "https://tong.visitkorea.or.kr/cms/resource/71/4056771_image2_1.jpg"
      },
      {
        "name": "동궁과 월지",
        "category": "역사",
        "lat": 35.8352023996,
        "lng": 129.2283747104,
        "image": "https://tong.visitkorea.or.kr/cms/resource/62/2612562_image2_1.jpg"
      }
    ],
    "yeosu": [
      {
        "name": "오동도",
        "category": "자연",
        "lat": 34.7444013572,
        "lng": 127.7678097276,
        "image": "https://tong.visitkorea.or.kr/cms/resource/34/3019934_image2_1.jpg"
      },
      {
        "name": "향일암",
        "category": "사찰",
        "lat": 34.59163334096751,
        "lng": 127.80364451033967,
        "image": "https://tong.visitkorea.or.kr/cms/resource/93/3499893_image2_1.JPG"
      },
      {
        "name": "여수 해상케이블카",
        "category": "관광지",
        "lat": 34.7307968308,
        "lng": 127.7393264527,
        "image": "https://tong.visitkorea.or.kr/cms/resource/64/3422964_image2_1.png"
      },
      {
        "name": "돌산공원",
        "category": "자연",
        "lat": 34.730596892,
        "lng": 127.7415234884,
        "image": "https://tong.visitkorea.or.kr/cms/resource/54/3534454_image2_1.jpg"
      },
      {
        "name": "이순신광장",
        "category": "관광지",
        "lat": 34.7399013049,
        "lng": 127.7357348686,
        "image": "https://tong.visitkorea.or.kr/cms/resource/07/3351107_image2_1.jpg"
      }
    ],
    "gangneung": [
      {
        "name": "경포대",
        "category": "자연",
        "lat": 37.7955136762197,
        "lng": 128.896483966593,
        "image": "https://tong.visitkorea.or.kr/cms/resource/52/3501452_image2_1.jpg"
      },
      {
        "name": "경포해변",
        "category": "해변",
        "lat": 37.80577602432606,
        "lng": 128.90743823970874,
        "image": "https://tong.visitkorea.or.kr/cms/resource/17/2671417_image2_1.jpg"
      },
      {
        "name": "정동진",
        "category": "해변",
        "lat": 37.691360328107315,
        "lng": 129.0325745067553,
        "image": "https://tong.visitkorea.or.kr/cms/resource/82/3534482_image2_1.jpg"
      },
      {
        "name": "오죽헌",
        "category": "역사",
        "lat": 37.779138874844655,
        "lng": 128.87966210169768,
        "image": "https://tong.visitkorea.or.kr/cms/resource/38/3527138_image2_1.jpg"
      },
      {
        "name": "안목해변",
        "category": "해변",
        "lat": 37.7725952413582,
        "lng": 128.947321445483,
        "image": "https://tong.visitkorea.or.kr/cms/resource/49/2921949_image2_1.jpg"
      }
    ],
    "jeonju": [
      {
        "name": "전주 한옥마을",
        "category": "문화",
        "lat": 35.8183167088,
        "lng": 127.1536278459,
        "image": "https://tong.visitkorea.or.kr/cms/resource/50/3479250_image2_1.jpg"
      },
      {
        "name": "경기전",
        "category": "역사",
        "lat": 35.8142143363,
        "lng": 127.1500366062,
        "image": "https://tong.visitkorea.or.kr/cms/resource/74/3422574_image2_1.jpg"
      },
      {
        "name": "오목대와 이목대",
        "category": "자연",
        "lat": 35.8144338342,
        "lng": 127.1546028608,
        "image": "https://tong.visitkorea.or.kr/cms/resource/46/3533046_image2_1.jpg"
      },
      {
        "name": "전주향교",
        "category": "사찰",
        "lat": 35.8129451491,
        "lng": 127.1565360613,
        "image": "https://tong.visitkorea.or.kr/cms/resource/14/3533014_image2_1.jpg"
      },
      {
        "name": "객사길",
        "category": "관광지",
        "lat": 35.817666612,
        "lng": 127.143728744,
        "image": "https://tong.visitkorea.or.kr/cms/resource/59/3351559_image2_1.jpg"
      }
    ]
  }
}
