{
  "jejuExtraImages": {
    "섭지코지": "https://tong.visitkorea.or.kr/cms/resource/83/2513483_image2_1.jpg",
    "비자림": "https://tong.visitkorea.or.kr/cms/resource/22/3350622_image2_1.jpg",
    "만장굴": "https://tong.visitkorea.or.kr/cms/resource/55/3354155_image2_1.jpg"
  },
  "regions": {
    "busan": [
      {
        "name": "해운대해수욕장",
        "category": "해변",
        "lat": 35.1590840227225,
        "lng": 129.160278564827,
        "image": "https://tong.visitkorea.or.kr/cms/resource/34/3090534_image2_1.JPG"
      },
      {
        "name": "감천문화마을",
        "category": "문화",
        "lat": 35.0974606978369,
        "lng": 129.010596996534,
        "image": "https://tong.visitkorea.or.kr/cms/resource/91/3365491_image2_1.jpg"
      },
      {
        "name": "태종대",
        "category": "자연",
        "lat": 35.05969491904282,
        "lng": 129.07980569117214,
        "image": "https://tong.visitkorea.or.kr/cms/resource/83/3506383_image2_1.jpg"
      },
      {
        "name": "광안리해수욕장",
        "category": "해변",
        "lat": 35.1538130576,
        "lng": 129.1185477876,
        "image": "https://tong.visitkorea.or.kr/cms/resource/45/3311245_image2_1.jpg"
      },
      {
        "name": "해동용궁사",
        "category": "사찰",
        "lat": 35.1882428912293,
        "lng": 129.223530192843,
        "image": "https://tong.visitkorea.or.kr/cms/resource/35/3499335_image2_1.jpg"
      }
    ],
    "gyeongju": [
      {
        "name": "불국사",
        "category": "사찰",
        "lat": 35.7923023161251,
        "lng": 129.331725391321,
        "image": "https://tong.visitkorea.or.kr/cms/resource/70/3506170_image2_1.jpg"
      },
      {
        "name": "석굴암",
        "category": "사찰",
        "lat": 35.78934072227894,
        "lng": 129.35075165526612,
        "image": "https://tong.visitkorea.or.kr/cms/resource/69/3581269_image2_1.jpg"
      },
      {
        "name": "첨성대",
        "category": "역사",
        "lat": 35.8343303426799,
        "lng": 129.218534537847,
        "image": "https://tong.visitkorea.or.kr/cms/resource/81/3554381_image2_1.jpg"
      },
      {
        "name": "대릉원",
        "category": "역사",
        "lat": 35.8382,
        "lng": 129.2128,
        "image": "https://tong.visitkorea.or.kr/cms/resource/71/4056771_image2_1.jpg"
      },
      {
        "name": "동궁과 월지",
        "category": "역사",
        "lat": 35.8352023996,
        "lng": 129.2283747104,
        "image": "https://tong.visitkorea.or.kr/cms/resource/62/2612562_image2_1.jpg"
      }
    ],
    "yeosu": [
      {
        "name": "오동도",
        "category": "자연",
        "lat": 34.7444013572,
        "lng": 127.7678097276,
        "image": "https://tong.visitkorea.or.kr/cms/resource/34/3019934_image2_1.jpg"
      },
      {
        "name": "향일암",
        "category": "사찰",
        "lat": 34.59163334096751,
        "lng": 127.80364451033967,
        "image": "https://tong.visitkorea.or.kr/cms/resource/93/3499893_image2_1.JPG"
      },
      {
        "name": "여수 해상케이블카",
        "category": "관광지",
        "lat": 34.7307968308,
        "lng": 127.7393264527,
        "image": "https://tong.visitkorea.or.kr/cms/resource/64/3422964_image2_1.png"
      },
      {
        "name": "돌산공원",
        "category": "자연",
        "lat": 34.730596892,
        "lng": 127.7415234884,
        "image": "https://tong.visitkorea.or.kr/cms/resource/54/3534454_image2_1.jpg"
      },
      {
        "name": "이순신광장",
        "category": "관광지",
        "lat": 34.7399013049,
        "lng": 127.7357348686,
        "image": "https://tong.visitkorea.or.kr/cms/resource/07/3351107_image2_1.jpg"
      }
    ],
    "gangneung": [
      {
        "name": "경포대",
        "category": "자연",
        "lat": 37.7955136762197,
        "lng": 128.896483966593,
        "image": "https://tong.visitkorea.or.kr/cms/resource/52/3501452_image2_1.jpg"
      },
      {
        "name": "경포해변",
        "category": "해변",
        "lat": 37.80577602432606,
        "lng": 128.90743823970874,
        "image": "https://tong.visitkorea.or.kr/cms/resource/17/2671417_image2_1.jpg"
      },
      {
        "name": "정동진",
        "category": "해변",
        "lat": 37.691360328107315,
        "lng": 129.0325745067553,
        "image": "https://tong.visitkorea.or.kr/cms/resource/82/3534482_image2_1.jpg"
      },
      {
        "name": "오죽헌",
        "category": "역사",
        "lat": 37.779138874844655,
        "lng": 128.87966210169768,
        "image": "https://tong.visitkorea.or.kr/cms/resource/38/3527138_image2_1.jpg"
      },
      {
        "name": "안목해변",
        "category": "해변",
        "lat": 37.7725952413582,
        "lng": 128.947321445483,
        "image": "https://tong.visitkorea.or.kr/cms/resource/49/2921949_image2_1.jpg"
      }
    ],
    "jeonju": [
      {
        "name": "전주 한옥마을",
        "category": "문화",
        "lat": 35.8183167088,
        "lng": 127.1536278459,
        "image": "https://tong.visitkorea.or.kr/cms/resource/50/3479250_image2_1.jpg"
      },
      {
        "name": "경기전",
        "category": "역사",
        "lat": 35.8142143363,
        "lng": 127.1500366062,
        "image": "https://tong.visitkorea.or.kr/cms/resource/74/3422574_image2_1.jpg"
      },
      {
        "name": "오목대와 이목대",
        "category": "자연",
        "lat": 35.8144338342,
        "lng": 127.1546028608,
        "image": "https://tong.visitkorea.or.kr/cms/resource/46/3533046_image2_1.jpg"
      },
      {
        "name": "전주향교",
        "category": "사찰",
        "lat": 35.8129451491,
        "lng": 127.1565360613,
        "image": "https://tong.visitkorea.or.kr/cms/resource/14/3533014_image2_1.jpg"
      },
      {
        "name": "객사길",
        "category": "관광지",
        "lat": 35.817666612,
        "lng": 127.143728744,
        "image": "https://tong.visitkorea.or.kr/cms/resource/59/3351559_image2_1.jpg"
      }
    ],
    "seoul": [
      {
        "name": "경복궁",
        "category": "역사",
        "lat": 37.576030700049394,
        "lng": 126.97672186606306,
        "image": "https://tong.visitkorea.or.kr/cms/resource/98/3487598_image2_1.jpg"
      },
      {
        "name": "북촌한옥마을",
        "category": "문화",
        "lat": 37.5790529392,
        "lng": 126.9867060298,
        "image": "https://tong.visitkorea.or.kr/cms/resource/04/3304404_image2_1.jpg"
      },
      {
        "name": "광장시장",
        "category": "시장",
        "lat": 37.5701653166,
        "lng": 126.9997217621,
        "image": "https://tong.visitkorea.or.kr/cms/resource/81/2668981_image2_1.jpg"
      },
      {
        "name": "남산서울타워",
        "category": "전망",
        "lat": 37.5510545366352,
        "lng": 126.987882083295,
        "image": "https://tong.visitkorea.or.kr/cms/resource/70/3089670_image2_1.jpg"
      }
    ],
    "incheon": [
      {
        "name": "송도센트럴파크",
        "category": "자연",
        "lat": 37.3903993102,
        "lng": 126.6435981392,
        "image": "https://tong.visitkorea.or.kr/cms/resource/19/3512919_image2_1.jpg"
      },
      {
        "name": "월미도",
        "category": "해변",
        "lat": 37.4722,
        "lng": 126.6001,
        "image": "https://tong.visitkorea.or.kr/cms/resource/94/3518594_image2_1.jpg"
      },
      {
        "name": "인천대공원",
        "category": "자연",
        "lat": 37.45761997324,
        "lng": 126.749258005815,
        "image": "https://tong.visitkorea.or.kr/cms/resource/53/4061653_image2_1.jpg"
      },
      {
        "name": "소래포구",
        "category": "시장",
        "lat": 37.3988547472195,
        "lng": 126.74004666263,
        "image": "https://tong.visitkorea.or.kr/cms/resource/65/4039065_image2_1.jpg"
      }
    ],
    "daegu": [
      {
        "name": "김광석다시그리기길",
        "category": "문화",
        "lat": 35.8614600628,
        "lng": 128.6074868512,
        "image": "https://tong.visitkorea.or.kr/cms/resource/95/2947395_image2_1.jpg"
      },
      {
        "name": "이월드",
        "category": "테마파크",
        "lat": 35.8548822436,
        "lng": 128.5648324581,
        "image": "https://tong.visitkorea.or.kr/cms/resource/82/2818982_image2_1.jpg"
      },
      {
        "name": "서문시장",
        "category": "시장",
        "lat": 36.63547643,
        "lng": 127.4857373141,
        "image": "https://tong.visitkorea.or.kr/cms/resource/41/3461441_image2_1.jpg"
      },
      {
        "name": "앞산공원",
        "category": "자연",
        "lat": 35.8290189503,
        "lng": 128.5890560428,
        "image": "https://tong.visitkorea.or.kr/cms/resource/43/3338343_image2_1.jpg"
      },
      {
        "name": "수성못",
        "category": "자연",
        "lat": 35.8276418564,
        "lng": 128.6177257792,
        "image": "https://tong.visitkorea.or.kr/cms/resource/51/2653751_image2_1.jpg"
      }
    ],
    "daejeon": [
      {
        "name": "한밭수목원",
        "category": "자연",
        "lat": 36.3685826106998,
        "lng": 127.386251630496,
        "image": "https://tong.visitkorea.or.kr/cms/resource/68/3350768_image2_1.jpg"
      },
      {
        "name": "으능정이거리",
        "category": "거리",
        "lat": 36.3291243747,
        "lng": 127.4276592379,
        "image": "https://tong.visitkorea.or.kr/cms/resource/55/3526655_image2_1.jpg"
      },
      {
        "name": "장태산자연휴양림",
        "category": "자연",
        "lat": 36.2159112482284,
        "lng": 127.341257320067,
        "image": "https://tong.visitkorea.or.kr/cms/resource/42/3569842_image2_1.jpg"
      },
      {
        "name": "대청호",
        "category": "자연",
        "lat": 36.4011148323,
        "lng": 127.5101665667,
        "image": "https://tong.visitkorea.or.kr/cms/resource/66/3303866_image2_1.jpg"
      },
      {
        "name": "대전 오월드",
        "category": "테마파크",
        "lat": 36.2872648472553,
        "lng": 127.400110860362,
        "image": "https://tong.visitkorea.or.kr/cms/resource/97/3513197_image2_1.jpg"
      }
    ],
    "gwangju": [
      {
        "name": "국립아시아문화전당",
        "category": "문화",
        "lat": 35.1460861028,
        "lng": 126.9192936186,
        "image": "https://tong.visitkorea.or.kr/cms/resource/59/3083359_image2_1.jpg"
      },
      {
        "name": "양림동 역사문화마을",
        "category": "문화",
        "lat": 35.1397,
        "lng": 126.9113,
        "image": "https://tong.visitkorea.or.kr/cms/resource/80/3514580_image2_1.jpg"
      },
      {
        "name": "무등산국립공원",
        "category": "자연",
        "lat": 37.5219549732,
        "lng": 127.0399333544,
        "image": "https://tong.visitkorea.or.kr/cms/resource/89/1838489_image2_1.jpg"
      },
      {
        "name": "사직공원전망타워",
        "category": "전망",
        "lat": 35.1416137678,
        "lng": 126.911488839,
        "image": "https://tong.visitkorea.or.kr/cms/resource/65/2755565_image2_1.png"
      },
      {
        "name": "1913송정역시장",
        "category": "시장",
        "lat": 35.1353407217,
        "lng": 126.7917329445,
        "image": "https://tong.visitkorea.or.kr/cms/resource/96/2617796_image2_1.jpg"
      }
    ],
    "sokcho": [
      {
        "name": "설악산국립공원",
        "category": "자연",
        "lat": 38.0854190277304,
        "lng": 128.449327966942,
        "image": "https://tong.visitkorea.or.kr/cms/resource/45/3505945_image2_1.jpg"
      },
      {
        "name": "속초해수욕장",
        "category": "해변",
        "lat": 38.1906064639,
        "lng": 128.6019575219,
        "image": "https://tong.visitkorea.or.kr/cms/resource/68/2733168_image2_1.jpg"
      },
      {
        "name": "대포항",
        "category": "시장",
        "lat": 38.1748951238747,
        "lng": 128.607433369894,
        "image": "https://tong.visitkorea.or.kr/cms/resource/56/4066656_image2_1.jpg"
      },
      {
        "name": "영금정",
        "category": "자연",
        "lat": 38.2119011984,
        "lng": 128.6014624568,
        "image": "https://tong.visitkorea.or.kr/cms/resource/01/3576201_image2_1.jpg"
      },
      {
        "name": "속초관광수산시장",
        "category": "시장",
        "lat": 38.2039356903525,
        "lng": 128.590522986422,
        "image": "https://tong.visitkorea.or.kr/cms/resource/67/4041467_image2_1.jpg"
      }
    ]
  }
}
